{
  "items": [{
    "name": "Austria",
    "code": "at",
    "position": { "lat": 47.516231, "lng": 14.550072 }
  }, {
    "name": "Australia",
    "code": "au",
    "position": { "lat": -25.274398, "lng": 133.775136 }
  }, {
    "name": "Belgium",
    "code": "be",
    "position": { "lat": 50.503887, "lng": 4.469936 }
  }, {
    "name": "Switzerland",
    "code": "ch",
    "position": { "lat": 46.818188, "lng": 8.227512 }
  }, {
    "name": "China",
    "code": "cn",
    "position": { "lat": 35.86166, "lng": 104.195397 }
  }, {
    "name": "Germany",
    "code": "de",
    "position": { "lat": 51.165691, "lng": 10.451526 }
  }, {
    "name": "Denmark",
    "code": "dk",
    "position": { "lat": 56.26392, "lng": 9.501785 }
  }, {
    "name": "Spain",
    "code": "es",
    "position": { "lat": 40.463667, "lng": -3.74922 }
  }, {
    "name": "Finland",
    "code": "fi",
    "position": { "lat": 61.92411, "lng": 25.748151 }
  }, {
    "name": "France",
    "code": "fr",
    "position": { "lat": 46.227638, "lng": 2.213749 }
  }, {
    "name": "United Kingdom",
    "code": "gb",
    "position": { "lat": 55.378051, "lng": -3.435973 }
  }, {
    "name": "Hong Kong",
    "code": "hk",
    "position": { "lat": 22.396428, "lng": 114.109497 }
  }, {
    "name": "Ireland",
    "code": "ie",
    "position": { "lat": 53.41291, "lng": -8.24389 }
  }, {
    "name": "Iceland",
    "code": "is",
    "position": { "lat": 64.963051, "lng": -19.020835 }
  }, {
    "name": "Italy",
    "code": "it",
    "position": { "lat": 41.87194, "lng": 12.56738 }
  }, {
    "name": "Japan",
    "code": "jp",
    "position": { "lat": 36.204824, "lng": 138.252924 }
  }, {
    "name": "Lithuania",
    "code": "lt",
    "position": { "lat": 55.169438, "lng": 23.881275 }
  }, {
    "name": "Netherlands",
    "code": "nl",
    "position": { "lat": 52.132633, "lng": 5.291266 }
  }, {
    "name": "Norway",
    "code": "no",
    "position": { "lat": 60.472024, "lng": 8.468946 }
  }, {
    "name": "Poland",
    "code": "pl",
    "position": { "lat": 51.919438, "lng": 19.145136 }
  }, {
    "name": "Russia",
    "code": "ru",
    "position": { "lat": 61.52401, "lng": 105.318756 }
  }, {
    "name": "Sweden",
    "code": "se",
    "position": { "lat": 60.128161, "lng": 18.643501 }
  }, {
    "name": "Singapore",
    "code": "sg",
    "position": { "lat": 1.352083, "lng": 103.819836 }
  }, {
    "name": "Thailand",
    "code": "th",
    "position": { "lat": 15.870032, "lng": 100.992541 }
  }, {
    "name": "United States",
    "code": "us",
    "position": { "lat": 37.09024, "lng": -95.712891 }
  }]
}

